{
  "departments":
  [
    {
      "id":1, "name":"VBA", "offices":
    [
      {
        "id": 1,
        "name": "Albuquerque Regional Office",
        "state": "New Mexico"
      },
      {
        "id": 2,
        "name": "Anchorage Regional Office",
        "state": "Alaska"
      },
      {
        "id": 3,
        "name": "Atlanta Regional Office",
        "state": "Georgia"
      },
      {
        "id": 4,
        "name": "Baltimore Regional Office",
        "state": "Maryland"
      },
      {
        "id": 5,
        "name": "Boise Regional Office",
        "state": "Idaho"
      },
      {
        "id": 6,
        "name": "Boston Regional Office",
        "state": "Massachusetts"
      },
      {
        "id": 7,
        "name": "Buffalo Regional Office",
        "state": "New York"
      },
      {
        "id": 8,
        "name": "Cheyenne Regional Office",
        "state": "Wyoming"
      },
      {
        "id": 9,
        "name": "Chicago Regional Office",
        "state": "Illinois"
      },
      {
        "id": 10,
        "name": "Cleveland Regional Office",
        "state": "Ohio"
      },
      {
        "id": 11,
        "name": "Columbia Regional Office",
        "state": "South Carolina"
      },
      {
        "id": 12,
        "name": "Denver Regional Office",
        "state": "Colorado"
      },
      {
        "id": 13,
        "name": "Des Moines Regional Office",
        "state": "Iowa"
      },
      {
        "id": 14,
        "name": "Detroit Regional Office",
        "state": "Michigan"
      },
      {
        "id": 15,
        "name": "Fargo Regional Office",
        "state": "North Dakota"
      },
      {
        "id": 16,
        "name": "Fort Harrison Regional Office",
        "state": "Missouri"
      },
      {
        "id": 17,
        "name": "Hartford Regional Office",
        "state": "Connecticut"
      },
      {
        "id": 18,
        "name": "Honolulu Regional Office",
        "state": "Hawaii"
      },
      {
        "id": 19,
        "name": "Houston Regional Office",
        "state": "Texas"
      },
      {
        "id": 20,
        "name": "Huntington Regional Office",
        "state": "West Virginia"
      },
      {
        "id": 21,
        "name": "Indianapolis Regional Office",
        "state": "Indiana"
      },
      {
        "id": 22,
        "name": "Jackson Regional Office",
        "state": "Michigan"
      },
      {
        "id": 23,
        "name": "Lincoln Regional Office",
        "state": "Nebraska"
      },
      {
        "id": 24,
        "name": "Little Rock Regional Office",
        "state": "Arkansas"
      },
      {
        "id": 25,
        "name": "Los Angeles Regional Office",
        "state": "California"
      },
      {
        "id": 26,
        "name": "Louisville Regional Office",
        "state": "Kentucky"
      },
      {
        "id": 27,
        "name": "Manchester Regional Office",
        "state": "New Hampshire"
      },
      {
        "id": 28,
        "name": "Manila Regional Office",
        "state": "Philippines (PH)"
      },
      {
        "id": 29,
        "name": "Milwaukee Regional Office",
        "state": "Wisconsin"
      },
      {
        "id": 30,
        "name": "Montgomery Regional Office",
        "state": "Alabama"
      },
      {
        "id": 31,
        "name": "Muskogee Regional Office",
        "state": "Oklahoma"
      },
      {
        "id": 32,
        "name": "Nashville Regional Office",
        "state": "Tennessee"
      },
      {
        "id": 33,
        "name": "New Orleans Regional Office",
        "state": "Louisiana"
      },
      {
        "id": 34,
        "name": "New York Regional Office",
        "state": "New York"
      },
      {
        "id": 35,
        "name": "Newark Regional Office",
        "state": "New Jersey"
      },
      {
        "id": 36,
        "name": "Oakland Regional Office",
        "state": "California"
      },
      {
        "id": 37,
        "name": "Philadelphia Regional Office",
        "state": "Pennsylvania"
      },
      {
        "id": 38,
        "name": "Phoenix Regional Office",
        "state": "Arizona"
      },
      {
        "id": 39,
        "name": "Pittsburgh Regional Office",
        "state": "Pennsylvania"
      },
      {
        "id": 40,
        "name": "Portland Regional Office",
        "state": "Oregon"
      },
      {
        "id": 41,
        "name": "Providence Regional Office",
        "state": "Rhode Island"
      },
      {
        "id": 42,
        "name": "Reno Regional Office",
        "state": "Nevada"
      },
      {
        "id": 43,
        "name": "Roanoke Regional Office",
        "state": "Virginia"
      },
      {
        "id": 44,
        "name": "Salt Lake City Regional Office",
        "state": "Utah"
      },
      {
        "id": 45,
        "name": "San Diego Regional Office",
        "state": "California"
      },
      {
        "id": 46,
        "name": "San Juan Regional Office",
        "state": "Puerto Rico"
      },
      {
        "id": 47,
        "name": "Seattle Regional Office",
        "state": "Washington"
      },
      {
        "id": 48,
        "name": "Sioux Falls Regional Office",
        "state": "South Dakota"
      },
      {
        "id": 49,
        "name": "St. Louis Regional Office",
        "state": "Missouri"
      },
      {
        "id": 50,
        "name": "St. Paul Regional Office",
        "state": "Minnesota"
      },
      {
        "id": 51,
        "name": "St. Petersburg Regional Office",
        "state": "Florida"
      },
      {
        "id": 52,
        "name": "Togus Regional Office",
        "state": "Maine"
      },
      {
        "id": 53,
        "name": "Waco Regional Office",
        "state": "Texas"
      },
      {
        "id": 54,
        "name": "Washington D.C. National Capital Regional Office",
        "state": "District of Columbia"
      },
      {
        "id": 55,
        "name": "White River Junction Regional Office",
        "state": "Vermont"
      },
      {
        "id": 56,
        "name": "Wichita Regional Office",
        "state": "Kansas"
      },
      {
        "id": 57,
        "name": "Wilmington Regional Office",
        "state": "Delaware"
      },
      {
        "id": 58,
        "name": "Winston-Salem Regional Office",
        "state": "North Carolina"
      }
    ]
    }
  ],
  "visns":
  [
    {
      "id": 1,
      "number": "VISN-1",
      "name": "VA New England Healthcare System",
      "street_address": "200 Springs Road, Building 61",
      "city": "Bedford",
      "state": "MA",
      "zip_code": "01730",
      "latitude": "42.507380",
      "longitude": "-71.275534",
      "phone_number": "781-687-4821"
    },
    {
      "id": 2,
      "number": "VISN-2",
      "name": "New York/New Jersey VA Health Care Network",
      "street_address": "130 W. Kingsbridge Road, Building 16",
      "city": "Bronx",
      "state": "NY",
      "zip_code": "10468",
      "latitude": "40.867622",
      "longitude": "-73.906372",
      "phone_number": "718-741-4134"
    },
    {
      "id": 3,
      "number": "VISN-4",
      "name": "VA Healthcare - VISN 4",
      "street_address": "1010 Delafield Road",
      "city": "Pittsburgh",
      "state": "PA",
      "zip_code": "15215",
      "latitude": "40.494436",
      "longitude": "-79.888479",
      "phone_number": "412-822-3316"
    },
    {
      "id": 4,
      "number": "VISN-5",
      "name": "VA Capitol Health Care Network",
      "street_address": "849 International Drive, Suite 275",
      "city": "Linthicum",
      "state": "MD",
      "zip_code": "21090",
      "latitude": "39.205863",
      "longitude": "-76.672969",
      "phone_number": "410-691-1131"
    },
    {
      "id": 5,
      "number": "VISN-6",
      "name": "VA Mid-Atlantic Health Care Network",
      "street_address": "3518 Westgate Drive",
      "city": "Durham",
      "state": "NC",
      "zip_code": "27707",
      "latitude": "35.963796",
      "longitude": "-78.960694",
      "phone_number": "919-956-5541"
    },
    {
      "id": 6,
      "number": "VISN-7",
      "name": "VA Southeast Network",
      "street_address": "3700 Crestwood Parkway, Suite 500",
      "city": "Duluth",
      "state": "GA",
      "zip_code": "30096",
      "latitude": "33.945946",
      "longitude": "-84.128073",
      "phone_number": "678-924-5700"
    },
    {
      "id": 7,
      "number": "VISN-8",
      "name": "VA Sunshine Healthcare Network",
      "street_address": "140 Fountain Parkway, Suite 600",
      "city": "St. Petersburg",
      "state": "FL",
      "zip_code": "33716",
      "latitude": "27.892280",
      "longitude": "-82.656235",
      "phone_number": "727-575-8069"
    },
    {
      "id": 8,
      "number": "VISN-9",
      "name": "VA MidSouth Healthcare Network",
      "street_address": "1801 West End Avenue, Suite 600",
      "city": "Nashville",
      "state": "TN",
      "zip_code": "37203",
      "latitude": "36.152716",
      "longitude": "-86.796089",
      "phone_number": "615-695-2200"
    },
    {
      "id": 9,
      "number": "VISN-10",
      "name": "VA Healthcare System",
      "street_address": "11500 Northlake Drive, Suite 200",
      "city": "Cincinnati",
      "state": "OH",
      "zip_code": "45249",
      "latitude": "39.275373",
      "longitude": "-84.347703",
      "phone_number": "513-247-4610"
    },
    {
      "id": 10,
      "number": "VISN-12",
      "name": "VA Great Lakes Health Care System",
      "street_address": "Four Westbrook Corporate Tower, 11301 West Cermak Road, Suite 810",
      "city": "Westchester",
      "state": "IL",
      "zip_code": "60154",
      "latitude": "41.846910",
      "longitude": "-87.905130",
      "phone_number": "708-492-3900"
    },
    {
      "id": 11,
      "number": "VISN-15",
      "name": "VA Heartland Network",
      "street_address": "1201 Walnut Street, Suite 800",
      "city": "Kansas City",
      "state": "MO",
      "zip_code": "64106",
      "latitude": "39.099796",
      "longitude": "-94.581732",
      "phone_number": "816-701-3002"
    },
    {
      "id": 12,
      "number": "VISN-16",
      "name": "South Central VA Health Care Network",
      "street_address": "715 South Pear Orchard Road, Plaza 1",
      "city": "Ridgeland",
      "state": "MS",
      "zip_code": "39157",
      "latitude": "32.405493",
      "longitude": "-90.125014",
      "phone_number": "601-206-6900"
    },
    {
      "id": 13,
      "number": "VISN-17",
      "name": "VA Heart of Texas Health Care Network",
      "street_address": "2301 East Lamar Boulevard, Suite 650",
      "city": "Arlington",
      "state": "TX",
      "zip_code": "76006",
      "latitude": "32.762672",
      "longitude": "-97.068927",
      "phone_number": "817-652-1111"
    },
    {
      "id": 14,
      "number": "VISN-19",
      "name": "Rocky Mountain Network",
      "street_address": "4100 East Mississippi Avenue, Suite 1100",
      "city": "Glendale",
      "state": "CO",
      "zip_code": "80246",
      "latitude": "39.696223",
      "longitude": "-104.938850",
      "phone_number": "303-202-8165"
    },
    {
      "id": 15,
      "number": "VISN-20",
      "name": "Northwest Network",
      "street_address": "1601 East 4th Plain Boulevard",
      "city": "Vancouver",
      "state": "WA",
      "zip_code": "98661",
      "latitude": "45.639180",
      "longitude": "-122.658137",
      "phone_number": "360-619-5925"
    },
    {
      "id": 16,
      "number": "VISN-21",
      "name": "Sierra Pacific Network",
      "street_address": "391 Taylor Boulevard, Suite 200",
      "city": "Pleasant Hill",
      "state": "CA",
      "zip_code": "94523",
      "latitude": "37.960893",
      "longitude": "-122.070705",
      "phone_number": "916-923-4530"
    },
    {
      "id": 17,
      "number": "VISN-22",
      "name": "Desert Pacific Healthcare Network",
      "street_address": "300 Oceangate, Suite 700",
      "city": "Long Beach",
      "state": "CA",
      "zip_code": "90802",
      "latitude": "33.766677",
      "longitude": "-118.200375",
      "phone_number": "562-826-5963"
    },
    {
      "id": 18,
      "number": "VISN-23",
      "name": "VA Midwest Health Care Network",
      "street_address": "2805 Dodd Road, Suite 250",
      "city": "Eagan",
      "state": "MN",
      "zip_code": "55121",
      "latitude": "44.855145",
      "longitude": "-93.130460",
      "phone_number": "651-405-5600"
    }
  ]
}
